{
  "pins": [
    {
      "latitude": 37.5195178349586,
      "longitude": 127.009922804923,
      "title": "잠원 한강공원 수영장",
      "description": "서울 서초구 잠원동 121",
      "url": "http://place.map.kakao.com/21331649",
      "region": "서울특별시"
    },
    {
      "latitude": 37.517960674319674,
      "longitude": 127.08595738765592,
      "title": "잠실 한강공원 물놀이장",
      "description": "서울 송파구 잠실동 1-1",
      "url": "http://place.map.kakao.com/10858264",
      "region": "서울특별시"
    },
    {
      "latitude": 37.4988632369067,
      "longitude": 126.990491568787,
      "title": "서초구민체육센터 수영장",
      "description": "서울 서초구 사평대로 55",
      "url": "http://place.map.kakao.com/11586056",
      "region": "서울특별시"
    },
    {
      "latitude": 37.6152113238518,
      "longitude": 127.087349090737,
      "title": "중랑구민체육센터 수영장",
      "description": "서울 중랑구 신내로15길 189",
      "url": "http://place.map.kakao.com/11586088",
      "region": "서울특별시"
    },
    {
      "latitude": 37.5734980215003,
      "longitude": 127.014439877311,
      "title": "종로구민회관 수영장",
      "description": "서울 종로구 지봉로5길 7-5",
      "url": "http://place.map.kakao.com/11586085",
      "region": "서울특별시"
    },
    {
      "latitude": 37.5640488814972,
      "longitude": 126.8793478804,
      "title": "난지 한강공원 물놀이장",
      "description": "서울 마포구 상암동 482-182",
      "url": "http://place.map.kakao.com/13086828",
      "region": "서울특별시"
    },
    {
      "latitude": 37.5597020326672,
      "longitude": 126.85059818871,
      "title": "강서구민올림픽체육센터 수영장",
      "description": "서울 강서구 화곡로65길 62",
      "url": "http://place.map.kakao.com/11586023",
      "region": "서울특별시"
    },
    {
      "latitude": 37.5066184847981,
      "longitude": 126.853300806677,
      "title": "구로구민체육센터 수영장",
      "description": "서울 구로구 고척로45길 39",
      "url": "http://place.map.kakao.com/11530299",
      "region": "서울특별시"
    },
    {
      "latitude": 37.5006034206188,
      "longitude": 126.906523901164,
      "title": "영등포 제1구민체육센터 수영장",
      "description": "서울 영등포구 신풍로 1",
      "url": "http://place.map.kakao.com/11586073",
      "region": "서울특별시"
    },
    {
      "latitude": 37.4628875057512,
      "longitude": 126.870548181779,
      "title": "광명시민체육관 어린이물놀이장",
      "description": "경기 광명시 오리로 703",
      "url": "http://place.map.kakao.com/1663239105",
      "region": "경기도"
    },
    {
      "latitude": 37.47308813949052,
      "longitude": 126.9603763047535,
      "title": "관악구민종합체육센터 수영장",
      "description": "서울 관악구 낙성대로3길 37",
      "url": "http://place.map.kakao.com/11586030",
      "region": "서울특별시"
    },
    {
      "latitude": 37.470186148348,
      "longitude": 126.90748875715,
      "title": "금천구민문화체육센터 수영장",
      "description": "서울 금천구 독산로54길 188",
      "url": "http://place.map.kakao.com/11530533",
      "region": "서울특별시"
    },
    {
      "latitude": 37.566538362878,
      "longitude": 127.073496614169,
      "title": "동대문구민체육센터 수영장",
      "description": "서울 동대문구 장안벚꽃로 67",
      "url": "http://place.map.kakao.com/7843269",
      "region": "서울특별시"
    },
    {
      "latitude": 37.6304635949099,
      "longitude": 126.923557325416,
      "title": "은평구민체육센터 수영장",
      "description": "서울 은평구 진관1로 40",
      "url": "http://place.map.kakao.com/1716223845",
      "region": "서울특별시"
    },
    {
      "latitude": 37.5877409326447,
      "longitude": 127.160413209068,
      "title": "구리시민스포츠센터 수영장",
      "description": "경기 구리시 왕숙천로 49",
      "url": "http://place.map.kakao.com/11586087",
      "region": "경기도"
    },
    {
      "latitude": 37.3033596482665,
      "longitude": 127.009524367628,
      "title": "장안구민회관 푸르내수영장",
      "description": "경기 수원시 장안구 송원로 101",
      "url": "http://place.map.kakao.com/12959631",
      "region": "경기도"
    },
    {
      "latitude": 37.305032616191234,
      "longitude": 127.04309860441373,
      "title": "광교웰빙국민체육센터 수영장",
      "description": "경기 수원시 영통구 웰빙타운로 71",
      "url": "http://place.map.kakao.com/679280114",
      "region": "경기도"
    },
    {
      "latitude": 37.3808687464739,
      "longitude": 127.128663726146,
      "title": "분당올림픽스포츠센터 수영장",
      "description": "경기 성남시 분당구 중앙공원로 35",
      "url": "http://place.map.kakao.com/7911625",
      "region": "경기도"
    },
    {
      "latitude": 37.4685225628717,
      "longitude": 126.798567976907,
      "title": "소사국민체육센터 수영장",
      "description": "경기 부천시 소사구 소사로 108",
      "url": "http://place.map.kakao.com/11586340",
      "region": "경기도"
    },
    {
      "latitude": 37.5187986304931,
      "longitude": 126.723698287673,
      "title": "부평국민체육센터 수영장",
      "description": "인천 부평구 부평대로296번길 33",
      "url": "http://place.map.kakao.com/11586048",
      "region": "인천광역시"
    },
    {
      "latitude": 37.51259633075267,
      "longitude": 126.76409517155074,
      "title": "부천국민체육센터",
      "description": "경기 부천시 원미구 석천로 293",
      "url": "http://place.map.kakao.com/365979082",
      "region": "경기도"
    },
    {
      "latitude": 37.56705197094183,
      "longitude": 127.19587564518132,
      "title": "하남종합운동장 국민체육센터 수영장",
      "description": "경기 하남시 아리수로 600",
      "url": "http://place.map.kakao.com/11586004",
      "region": "경기도"
    },
    {
      "latitude": 36.9891294763279,
      "longitude": 126.919509662004,
      "title": "서평택국민체육센터 실내수영장",
      "description": "경기 평택시 안중읍 서동대로 1531",
      "url": "http://place.map.kakao.com/24633545",
      "region": "경기도"
    },
    {
      "latitude": 36.9184579909843,
      "longitude": 127.058927148264,
      "title": "아산둔포국민체육센터 수영장",
      "description": "충남 아산시 둔포면 중앙공원로 51",
      "url": "http://place.map.kakao.com/1167647336",
      "region": "충청남도"
    },
    {
      "latitude": 37.0128856011505,
      "longitude": 127.329072561093,
      "title": "안성시국민체육센터 실내수영장",
      "description": "경기 안성시 보개면 양복리 210",
      "url": "http://place.map.kakao.com/24632943",
      "region": "경기도"
    },
    {
      "latitude": 37.0113795039905,
      "longitude": 127.268369704653,
      "title": "안성수영국민체육센터",
      "description": "경기 안성시 학자로 17",
      "url": "http://place.map.kakao.com/1450936833",
      "region": "경기도"
    },
    {
      "latitude": 36.8200355782855,
      "longitude": 127.113094416963,
      "title": "천안종합운동장 수영장",
      "description": "충남 천안시 서북구 번영로 208",
      "url": "http://place.map.kakao.com/26007562",
      "region": "충청남도"
    },
    {
      "latitude": 36.8212828650212,
      "longitude": 127.112934852745,
      "title": "천안종합운동장 수영장사우나전용주차장",
      "description": "충남 천안시 서북구 번영로 208",
      "url": "http://place.map.kakao.com/17573002",
      "region": "충청남도"
    },
    {
      "latitude": 37.39145838470785,
      "longitude": 126.8053624752302,
      "title": "시흥국민체육센터 수영장",
      "description": "경기 시흥시 하중로 226",
      "url": "http://place.map.kakao.com/26527021",
      "region": "경기도"
    },
    {
      "latitude": 37.9055762880203,
      "longitude": 127.054781988994,
      "title": "동두천어울림센터 시민수영장",
      "description": "경기 동두천시 중앙로 268",
      "url": "http://place.map.kakao.com/597835761",
      "region": "경기도"
    },
    {
      "latitude": 37.9051700209937,
      "longitude": 127.043895394259,
      "title": "동두천시민회관 야외수영장",
      "description": "경기 동두천시 어수로 8",
      "url": "http://place.map.kakao.com/17571459",
      "region": "경기도"
    },
    {
      "latitude": 37.8183982518118,
      "longitude": 127.352200335314,
      "title": "조종국민체육센터 수영장",
      "description": "경기 가평군 조종면 조종희망로26번길 16",
      "url": "http://place.map.kakao.com/24632942",
      "region": "경기도"
    },
    {
      "latitude": 37.4918677609751,
      "longitude": 127.60590624292,
      "title": "용문국민체육센터",
      "description": "경기 양평군 용문면 용문체육공원길 55",
      "url": "http://place.map.kakao.com/24632949",
      "region": "경기도"
    },
    {
      "latitude": 35.1490738028118,
      "longitude": 129.000452251284,
      "title": "부산시민스포츠센타 수영장",
      "description": "부산 사상구 학장로324번길 8",
      "url": "http://place.map.kakao.com/1177451515",
      "region": "부산광역시"
    },
    {
      "latitude": 35.117460956115,
      "longitude": 129.015652280519,
      "title": "부산국민체육센터 실내수영장",
      "description": "부산 서구 대신로 150",
      "url": "http://place.map.kakao.com/27138080",
      "region": "부산광역시"
    },
    {
      "latitude": 35.2280029532198,
      "longitude": 129.012394683141,
      "title": "돌핀어린이수영장",
      "description": "부산 북구 금곡대로 222",
      "url": "http://place.map.kakao.com/864879169",
      "region": "부산광역시"
    },
    {
      "latitude": 35.23564569268499,
      "longitude": 129.01347867074057,
      "title": "망고키즈 수영장 화명본점",
      "description": "부산 북구 금곡대로303번길 2",
      "url": "http://place.map.kakao.com/1443089868",
      "region": "부산광역시"
    },
    {
      "latitude": 35.2165044354332,
      "longitude": 129.035813257844,
      "title": "풀소리공원 물놀이장",
      "description": "부산 북구 만덕동 960-4",
      "url": "http://place.map.kakao.com/1048639666",
      "region": "부산광역시"
    },
    {
      "latitude": 35.2356477135153,
      "longitude": 129.01346554035,
      "title": "망고키즈수영장 체인사업본부",
      "description": "부산 북구 금곡대로303번길 2",
      "url": "http://place.map.kakao.com/544546057",
      "region": "부산광역시"
    },
    {
      "latitude": 35.2396710694052,
      "longitude": 128.994278975361,
      "title": "서핑할래 본점",
      "description": "경남 김해시 대동면 동남로91번길 15",
      "url": "http://place.map.kakao.com/1414287514",
      "region": "경상남도"
    },
    {
      "latitude": 35.8488628335657,
      "longitude": 128.578907701106,
      "title": "대구남구 공공실내수영장 (2026년예정)",
      "description": "대구 남구 대명동 1745-9",
      "url": "http://place.map.kakao.com/1487450250",
      "region": "대구광역시"
    },
    {
      "latitude": 35.8595668637324,
      "longitude": 128.506909908077,
      "title": "성서국민체육센터 수영장",
      "description": "대구 달서구 선원로 133",
      "url": "http://place.map.kakao.com/11586059",
      "region": "대구광역시"
    },
    {
      "latitude": 36.2371165698643,
      "longitude": 128.573962222192,
      "title": "군위국민체육센터 실내수영장",
      "description": "대구 군위군 군위읍 군청로 158",
      "url": "http://place.map.kakao.com/11585887",
      "region": "대구광역시"
    },
    {
      "latitude": 35.21880764982743,
      "longitude": 126.85805187240764,
      "title": "광주시민의숲 물놀이장",
      "description": "광주 북구 오룡동 1117",
      "url": "http://place.map.kakao.com/2060917031",
      "region": "광주광역시"
    },
    {
      "latitude": 35.1529109591757,
      "longitude": 126.84169219585,
      "title": "상무시민공원 물놀이장",
      "description": "광주 서구 치평동 1162",
      "url": "http://place.map.kakao.com/1703087661",
      "region": "광주광역시"
    },
    {
      "latitude": 35.1694819438302,
      "longitude": 126.888136674132,
      "title": "무등경기장 국민체육센터 수영장",
      "description": "광주 북구 서림로 10",
      "url": "http://place.map.kakao.com/528595561",
      "region": "광주광역시"
    },
    {
      "latitude": 36.3391726185358,
      "longitude": 127.40414364324205,
      "title": "중촌시민공원 물놀이장",
      "description": "대전 중구 중촌동 413-13",
      "url": "http://place.map.kakao.com/560100956",
      "region": "대전광역시"
    },
    {
      "latitude": 36.3476719557066,
      "longitude": 127.398402581749,
      "title": "남선공원종합체육관 파도풀장",
      "description": "대전 서구 남선로 66",
      "url": "http://place.map.kakao.com/8223078",
      "region": "대전광역시"
    },
    {
      "latitude": 35.563604147899,
      "longitude": 129.349949834082,
      "title": "동천국민체육센터 수영장",
      "description": "울산 중구 염포로 85-1",
      "url": "http://place.map.kakao.com/11586339",
      "region": "울산광역시"
    },
    {
      "latitude": 35.5035202207123,
      "longitude": 129.416405853581,
      "title": "동구국민체육센터 수영장",
      "description": "울산 동구 봉수로 153",
      "url": "http://place.map.kakao.com/11586040",
      "region": "울산광역시"
    },
    {
      "latitude": 37.8626168277644,
      "longitude": 127.756676095894,
      "title": "국민체육센터 수영장",
      "description": "강원특별자치도 춘천시 우석로 102-3",
      "url": "http://place.map.kakao.com/1045059095",
      "region": "강원특별자치도"
    },
    {
      "latitude": 37.3340718990803,
      "longitude": 127.946597627301,
      "title": "원주국민체육센터 수영장",
      "description": "강원특별자치도 원주시 남원로 551",
      "url": "http://place.map.kakao.com/11585969",
      "region": "강원특별자치도"
    },
    {
      "latitude": 37.7770842958109,
      "longitude": 128.896980015592,
      "title": "강릉국민체육센터 수영장",
      "description": "강원특별자치도 강릉시 수리골길 76",
      "url": "http://place.map.kakao.com/1137297892",
      "region": "강원특별자치도"
    },
    {
      "latitude": 37.7090805850686,
      "longitude": 127.906313133484,
      "title": "홍천군국민체육센터 수영장 매점",
      "description": "강원특별자치도 홍천군 홍천읍 태학여내길 31",
      "url": "http://place.map.kakao.com/2078790649",
      "region": "강원특별자치도"
    },
    {
      "latitude": 38.18671991894225,
      "longitude": 128.59065587486245,
      "title": "속초국민체육센터",
      "description": "강원특별자치도 속초시 조양로 89",
      "url": "http://place.map.kakao.com/318607993",
      "region": "강원특별자치도"
    },
    {
      "latitude": 36.96278187641343,
      "longitude": 127.92691099861032,
      "title": "충주국민체육센터 수영장",
      "description": "충북 충주시 중원대로 3306",
      "url": "http://place.map.kakao.com/685553225",
      "region": "충청북도"
    },
    {
      "latitude": 36.9107118120705,
      "longitude": 127.541913801923,
      "title": "맹동혁신국민체육센터 수영장",
      "description": "충북 음성군 맹동면 학예로 14",
      "url": "http://place.map.kakao.com/361947286",
      "region": "충청북도"
    },
    {
      "latitude": 36.1981384813698,
      "longitude": 127.797665136224,
      "title": "영동국민체육센터 수영장",
      "description": "충북 영동군 영동읍 대학로 310",
      "url": "http://place.map.kakao.com/13495442",
      "region": "충청북도"
    },
    {
      "latitude": 36.84749619229087,
      "longitude": 127.439940305601,
      "title": "생거진천국민체육센터 수영장",
      "description": "충북 진천군 진천읍 문화로 69-11",
      "url": "http://place.map.kakao.com/27526065",
      "region": "충청북도"
    },
    {
      "latitude": 36.95926776432485,
      "longitude": 127.91166444227714,
      "title": "충주장애인형국민체육센터 장애인수영장",
      "description": "충북 충주시 모시래길 105",
      "url": "http://place.map.kakao.com/348143271",
      "region": "충청북도"
    },
    {
      "latitude": 36.194906013844,
      "longitude": 127.107133185628,
      "title": "논산시민공원 물놀이장",
      "description": "충남 논산시 관촉동 314",
      "url": "http://place.map.kakao.com/2086742008",
      "region": "충청남도"
    },
    {
      "latitude": 36.79834794139251,
      "longitude": 126.43764796184821,
      "title": "서산국민체육센터 수영장",
      "description": "충남 서산시 안견로 661",
      "url": "http://place.map.kakao.com/27433294",
      "region": "충청남도"
    },
    {
      "latitude": 36.3139252657535,
      "longitude": 126.603947235268,
      "title": "보령국민체육센터 수영장",
      "description": "충남 보령시 남포면 보령남로 347",
      "url": "http://place.map.kakao.com/13575098",
      "region": "충청남도"
    },
    {
      "latitude": 36.465738776051,
      "longitude": 127.13700123368,
      "title": "국립공주대학교 신관캠퍼스 공주국민체육센터 수영장",
      "description": "충남 공주시 공주대학로 56",
      "url": "http://place.map.kakao.com/463889144",
      "region": "충청남도"
    },
    {
      "latitude": 36.1961376318793,
      "longitude": 127.1034068201,
      "title": "논산시국민체육센터 수영장",
      "description": "충남 논산시 논산대로 382",
      "url": "http://place.map.kakao.com/12139507",
      "region": "충청남도"
    },
    {
      "latitude": 35.81299046011306,
      "longitude": 126.90217324485599,
      "title": "김제시민공원 어린이물놀이장",
      "description": "전북특별자치도 김제시 도작로 224-122",
      "url": "http://place.map.kakao.com/30271014",
      "region": "전북특별자치도"
    },
    {
      "latitude": 35.8236909559345,
      "longitude": 127.169983630975,
      "title": "전북특별자치도국민체육센터 수영장",
      "description": "전북특별자치도 전주시 덕진구 한배미6길 7",
      "url": "http://place.map.kakao.com/26777457",
      "region": "전북특별자치도"
    },
    {
      "latitude": 35.9506027311275,
      "longitude": 126.816302233191,
      "title": "군산국민체육센터 수영장",
      "description": "전북특별자치도 군산시 대야면 석화로 63-15",
      "url": "http://place.map.kakao.com/1424710399",
      "region": "전북특별자치도"
    },
    {
      "latitude": 35.7308847703856,
      "longitude": 126.737227484145,
      "title": "부안국민체육센터 수영장",
      "description": "전북특별자치도 부안군 부안읍 석정로 165",
      "url": "http://place.map.kakao.com/12011371",
      "region": "전북특별자치도"
    },
    {
      "latitude": 35.608207203543,
      "longitude": 127.281437545324,
      "title": "임실국민체육센터 수영장",
      "description": "전북특별자치도 임실군 임실읍 호국로 1628",
      "url": "http://place.map.kakao.com/2064102282",
      "region": "전북특별자치도"
    },
    {
      "latitude": 35.4099843808662,
      "longitude": 127.381580136239,
      "title": "전북특별자치도교육청남원학생교육문화관 수영장",
      "description": "전북특별자치도 남원시 용성로 49",
      "url": "http://place.map.kakao.com/26370935",
      "region": "전북특별자치도"
    },
    {
      "latitude": 35.0655445177214,
      "longitude": 126.991679028985,
      "title": "화순군민종합문화센터 수영장",
      "description": "전남 화순군 화순읍 광덕로 231",
      "url": "http://place.map.kakao.com/105699489",
      "region": "전라남도"
    },
    {
      "latitude": 34.758748907447874,
      "longitude": 127.67835824974992,
      "title": "망마국민체육센터 수영장",
      "description": "전남 여수시 여천체육공원길 49",
      "url": "http://place.map.kakao.com/1487026395",
      "region": "전라남도"
    },
    {
      "latitude": 35.0656193387641,
      "longitude": 126.991782074355,
      "title": "화순국민체육센터 수영장",
      "description": "전남 화순군 화순읍 광덕로 231",
      "url": "http://place.map.kakao.com/14509612",
      "region": "전라남도"
    },
    {
      "latitude": 34.5674731621709,
      "longitude": 126.618343005549,
      "title": "우슬국민체육센터 조오련수영장",
      "description": "전남 해남군 해남읍 해남로 72",
      "url": "http://place.map.kakao.com/24901262",
      "region": "전라남도"
    },
    {
      "latitude": 34.6757138494919,
      "longitude": 126.908040503667,
      "title": "장흥국민체육센터 수영장",
      "description": "전남 장흥군 장흥읍 흥성로 43",
      "url": "http://place.map.kakao.com/1156252022",
      "region": "전라남도"
    },
    {
      "latitude": 35.32845027072407,
      "longitude": 126.97173178040114,
      "title": "담양국민체육센터(담빛수영장) 전기차충전소",
      "description": "전남 담양군 담양읍 담장로 20",
      "url": "http://place.map.kakao.com/1025636164",
      "region": "전라남도"
    },
    {
      "latitude": 35.8790908219269,
      "longitude": 129.217162144791,
      "title": "경주국민체육센터 수영장",
      "description": "경북 경주시 유림로5번길 85-15",
      "url": "http://place.map.kakao.com/11585874",
      "region": "경상북도"
    },
    {
      "latitude": 36.4224428232039,
      "longitude": 128.184002186343,
      "title": "상주시국민체육센터 수영장",
      "description": "경북 상주시 영남제일로 1432",
      "url": "http://place.map.kakao.com/24632953",
      "region": "경상북도"
    },
    {
      "latitude": 36.5886850926897,
      "longitude": 128.653684667221,
      "title": "안동국민체육센터 수영장",
      "description": "경북 안동시 서후면 서선길 189",
      "url": "http://place.map.kakao.com/460326371",
      "region": "경상북도"
    },
    {
      "latitude": 36.0661382624907,
      "longitude": 128.401070349383,
      "title": "석적국민체육센터 수영장",
      "description": "경북 칠곡군 석적읍 남율로7길 5",
      "url": "http://place.map.kakao.com/1649329246",
      "region": "경상북도"
    },
    {
      "latitude": 36.5955072862837,
      "longitude": 128.185537166205,
      "title": "문경시국민체육센터 실내수영장",
      "description": "경북 문경시 점고길 30",
      "url": "http://place.map.kakao.com/13336261",
      "region": "경상북도"
    },
    {
      "latitude": 36.8960467296392,
      "longitude": 128.728575639116,
      "title": "봉화국민체육센터 실내수영장",
      "description": "경북 봉화군 봉화읍 봉화로 1111-105",
      "url": "http://place.map.kakao.com/149466473",
      "region": "경상북도"
    },
    {
      "latitude": 35.2437879922027,
      "longitude": 128.869415541738,
      "title": "시민스포츠센터 수영장",
      "description": "경남 김해시 김해대로 2060",
      "url": "http://place.map.kakao.com/11585936",
      "region": "경상남도"
    },
    {
      "latitude": 35.2223886537649,
      "longitude": 128.688023474767,
      "title": "시민생활체육관 수영장",
      "description": "경남 창원시 성산구 원이대로 692",
      "url": "http://place.map.kakao.com/26777613",
      "region": "경상남도"
    },
    {
      "latitude": 35.3485214072942,
      "longitude": 129.035478800184,
      "title": "쌍벽루국민체육센터 실내수영장",
      "description": "경남 양산시 양산대로 849",
      "url": "http://place.map.kakao.com/843540787",
      "region": "경상남도"
    },
    {
      "latitude": 35.2531364818797,
      "longitude": 128.63672445423,
      "title": "곰두리국민체육센터 수영장",
      "description": "경남 창원시 의창구 원이대로114번길 6",
      "url": "http://place.map.kakao.com/1766877148",
      "region": "경상남도"
    },
    {
      "latitude": 35.0706417284599,
      "longitude": 128.084084670913,
      "title": "우주항공 국민체육센터 수영장",
      "description": "경남 사천시 정동면 사천강2길 36",
      "url": "http://place.map.kakao.com/1097345221",
      "region": "경상남도"
    },
    {
      "latitude": 35.208725360761306,
      "longitude": 128.1250181563159,
      "title": "진주국민체육센터 진주실내수영장",
      "description": "경남 진주시 남강로 1655",
      "url": "http://place.map.kakao.com/1854693201",
      "region": "경상남도"
    },
    {
      "latitude": 35.3099221541116,
      "longitude": 128.516048202241,
      "title": "함안군국민체육센터 수영장",
      "description": "경남 함안군 칠원읍 용산2길 68",
      "url": "http://place.map.kakao.com/2015657989",
      "region": "경상남도"
    },
    {
      "latitude": 33.5145777246342,
      "longitude": 126.546298530644,
      "title": "제주시국민체육센터 수영장",
      "description": "제주특별자치도 제주시 사라봉동길 25",
      "url": "http://place.map.kakao.com/1018446572",
      "region": "제주특별자치도"
    }
  ]
}